[
    {
        "name": "109 Coiffure Sophie",
        "postal_code": 41350,
        "commune": "Vineuil",
        "numero": "8bis",
        "voie": "Place du 11 Novembre",
        "lieu_dit": "",
        "activite": "Coiffure",
        "contact_url": "",
        "site_internet": "",
        "latitude": 47.5817,
        "longitude": 1.3775
    },
    {
        "name": "3 Marchands TRAITEUR et BOUTIQUE Traiteur - Epicerie Fine",
        "postal_code": 41190,
        "commune": "Herbault",
        "numero": "34",
        "voie": "Place de l’Hôtel de Ville",
        "lieu_dit": "",
        "activite": "Boucherie / commerce de viande",
        "contact_url": "",
        "site_internet": "https://www.3marchandstraiteur.fr/",
        "latitude": 47.6046,
        "longitude": 1.1407
    },
    {
        "name": "3 Vals Aménagement",
        "postal_code": 41000,
        "commune": "Blois",
        "numero": "23",
        "voie": "Rue de la Vallee Maillard",
        "lieu_dit": "",
        "activite": "Agence immobilière",
        "contact_url": "",
        "site_internet": "http://www.3vals-amenagement.fr/",
        "latitude": 47.6106,
        "longitude": 1.3356
    },
    {
        "name": "50 nuances plus belle Blois",
        "postal_code": 41000,
        "commune": "Blois",
        "numero": "7",
        "voie": "Route de Chateaurenault",
        "lieu_dit": "",
        "activite": "Coiffure",
        "contact_url": "",
        "site_internet": "https://www.planity.com/50-nuances-plus-belle-41000-blois",
        "latitude": 47.5844,
        "longitude": 1.316
    },
    {
        "name": "A",
        "postal_code": 41000,
        "commune": "Blois",
        "numero": "162",
        "voie": "Rue Albert 1er",
        "lieu_dit": "",
        "activite": "Auto école",
        "contact_url": "",
        "site_internet": "",
        "latitude": 47.5727,
        "longitude": 1.3066
    },
    {
        "name": "A.A.J.B. Natation",
        "postal_code": 41000,
        "commune": "Blois",
        "numero": "29",
        "voie": "Avenue Pierre Brossolette",
        "lieu_dit": "",
        "activite": "Piscine, centre aquatique",
        "contact_url": "",
        "site_internet": "https://aajblois.com/",
        "latitude": 47.5688,
        "longitude": 1.33
    },
    {
        "name": "Abeille Assurances - Blois",
        "postal_code": 41000,
        "commune": "Blois",
        "numero": "21",
        "voie": "Place Louis XII",
        "lieu_dit": "",
        "activite": "Assurance",
        "contact_url": "",
        "site_internet": "",
        "latitude": 47.5857,
        "longitude": 1.3332
    },
    {
        "name": "Accros Fleurs",
        "postal_code": 41000,
        "commune": "Blois",
        "numero": "",
        "voie": "Rue Porte- Cote",
        "lieu_dit": "",
        "activite": "Fleuriste",
        "contact_url": "",
        "site_internet": "https://accrosfleurs.wixsite.com/accros-fleurs",
        "latitude": 47.5869,
        "longitude": 1.3312
    },
    {
        "name": "Accv",
        "postal_code": 41000,
        "commune": "Blois",
        "numero": "37",
        "voie": "Avenue de l'Europe",
        "lieu_dit": "",
        "activite": "Auto école",
        "contact_url": "",
        "site_internet": "http://www.mobilite-accv-blois.fr/",
        "latitude": 47.5895,
        "longitude": 1.3045
    },
    {
        "name": "Acrylux",
        "postal_code": 41120,
        "commune": "Cormeray",
        "numero": "27",
        "voie": "Route de Fougères",
        "lieu_dit": "",
        "activite": "Droguerie",
        "contact_url": "",
        "site_internet": "http://www.acrylux.fr/contact.html",
        "latitude": 47.4757,
        "longitude": 1.4144
    },
    {
        "name": "Actif Finances Europe",
        "postal_code": 41000,
        "commune": "Blois",
        "numero": "6",
        "voie": "Quai Saint- Jean",
        "lieu_dit": "",
        "activite": "Assurance",
        "contact_url": "",
        "site_internet": "",
        "latitude": 47.5881,
        "longitude": 1.3389
    },
    {
        "name": "Action",
        "postal_code": 41350,
        "commune": "Vineuil",
        "numero": "",
        "voie": "Rue Bernard Palissy",
        "lieu_dit": "",
        "activite": "Bazar",
        "contact_url": "",
        "site_internet": "",
        "latitude": 47.5709,
        "longitude": 1.3691
    },
    {
        "name": "A.D.A. Omnisports • Abeille Des Aydes de Blois",
        "postal_code": 41000,
        "commune": "Blois",
        "numero": "4",
        "voie": "Rue du Plessis",
        "lieu_dit": "",
        "activite": "Sports et loisirs",
        "contact_url": "",
        "site_internet": "",
        "latitude": 47.5942,
        "longitude": 1.3281
    },
    {
        "name": "AD Carrosserie et Garage Expert LPJ AUTOMOBILES",
        "postal_code": 41000,
        "commune": "Saint-Sulpice-de-Pommeray",
        "numero": "1",
        "voie": "Rue de la Boissière",
        "lieu_dit": "",
        "activite": "Carrosserie",
        "contact_url": "",
        "site_internet": "https://www.ad.fr/garage/ad-carrosserie-lpj-automobiles?utm_source=google",
        "latitude": 47.6093,
        "longitude": 1.2681
    },
    {
        "name": "Addeconfetti",
        "postal_code": 41000,
        "commune": "Blois",
        "numero": "13",
        "voie": "Rue du Bourg Neuf",
        "lieu_dit": "",
        "activite": "Chocolatier",
        "contact_url": "",
        "site_internet": "",
        "latitude": 47.5895,
        "longitude": 1.3312
    },
    {
        "name": "AD Garage Expert EJ AUTOS - COUR CHEVERNY AUTOMOBILES",
        "postal_code": 41700,
        "commune": "Cour-Cheverny",
        "numero": "12",
        "voie": "Rue des Sapins",
        "lieu_dit": "",
        "activite": "Carrosserie",
        "contact_url": "",
        "site_internet": "https://www.ad.fr/garage/garage-courchevernyautomobiles?utm_source=google",
        "latitude": 47.5172,
        "longitude": 1.4498
    },
    {
        "name": "Advenis Conseil & Transaction - Blois",
        "postal_code": 41000,
        "commune": "Blois",
        "numero": "32",
        "voie": "Avenue du Maréchal Maunoury",
        "lieu_dit": "",
        "activite": "Agence immobilière",
        "contact_url": "",
        "site_internet": "https://www.advenis-res.com/advenis/implantations/conseil-transaction/blois",
        "latitude": 47.5926,
        "longitude": 1.3375
    },
    {
        "name": "AEROCOM MONTGOLFIERE",
        "postal_code": 41120,
        "commune": "Les Montils",
        "numero": "",
        "voie": "Rue de l’Artouillat",
        "lieu_dit": "",
        "activite": "Sports et loisirs",
        "contact_url": "",
        "site_internet": "",
        "latitude": 47.5116,
        "longitude": 1.3014
    },
    {
        "name": "Agence Azalys",
        "postal_code": 41000,
        "commune": "Blois",
        "numero": "3",
        "voie": "Rue du Commerce",
        "lieu_dit": "",
        "activite": "Administration publique",
        "contact_url": "",
        "site_internet": "https://www.azalys-blois.fr/",
        "latitude": 47.5858,
        "longitude": 1.335
    },
    {
        "name": "Agence de l'Or",
        "postal_code": 41000,
        "commune": "Blois",
        "numero": "1",
        "voie": "Rue des Orfevres",
        "lieu_dit": "",
        "activite": "Achat or",
        "contact_url": "",
        "site_internet": "https://www.instagram.com/agencedelor_blois/",
        "latitude": 47.5866,
        "longitude": 1.335
    },
    {
        "name": "Agence Imm",
        "postal_code": 41000,
        "commune": "Blois",
        "numero": "11",
        "voie": "Rue Porte- Cote",
        "lieu_dit": "",
        "activite": "Agence immobilière",
        "contact_url": "",
        "site_internet": "",
        "latitude": 47.5869,
        "longitude": 1.331
    },
    {
        "name": "Agence IMM",
        "postal_code": 41000,
        "commune": "Blois",
        "numero": "1",
        "voie": "Quai Ulysse Besnard",
        "lieu_dit": "",
        "activite": "Agence immobilière",
        "contact_url": "",
        "site_internet": "https://www.imm-blois.com/fr/location/appartement-t1-blois-41000/5AFD41F421A46280377953",
        "latitude": 47.5791,
        "longitude": 1.3228
    },
    {
        "name": "Agence IMM",
        "postal_code": 41000,
        "commune": "Blois",
        "numero": "17",
        "voie": "Avenue Gambetta",
        "lieu_dit": "",
        "activite": "Agence immobilière",
        "contact_url": "",
        "site_internet": "https://www.imm-blois.com/fr/location/appartement-t2-blois-41000/566BEF0641702745501004",
        "latitude": 47.5837,
        "longitude": 1.3217
    },
    {
        "name": "Agence immobilière ERA AP41 à Blois",
        "postal_code": 41000,
        "commune": "Blois",
        "numero": "24",
        "voie": "Avenue du President Wilson",
        "lieu_dit": "",
        "activite": "Agence immobilière",
        "contact_url": "",
        "site_internet": "http://www.era-ap41.com/",
        "latitude": 47.5826,
        "longitude": 1.3413
    },
    {
        "name": "Agence immobilière l'Adresse Blois",
        "postal_code": 41000,
        "commune": "Blois",
        "numero": "8",
        "voie": "Rue Denis Papin",
        "lieu_dit": "",
        "activite": "Agence immobilière",
        "contact_url": "",
        "site_internet": "https://www.ladresse.com/agence/l-adresse-blois/107?utm_source=google",
        "latitude": 47.5867,
        "longitude": 1.335
    },
    {
        "name": "Agence immobilière l'Adresse Chailles",
        "postal_code": 41120,
        "commune": "Chailles",
        "numero": "",
        "voie": "Rue Nationale",
        "lieu_dit": "",
        "activite": "Agence immobilière",
        "contact_url": "",
        "site_internet": "https://www.ladresse.com/agence/l-adresse-chailles/316?utm_source=google",
        "latitude": 47.5362,
        "longitude": 1.3081
    },
    {
        "name": "Agence immobilière l'Adresse Onzain",
        "postal_code": 41150,
        "commune": "Veuzain-sur-Loire",
        "numero": "22",
        "voie": "Grande Rue",
        "lieu_dit": "",
        "activite": "Agence immobilière",
        "contact_url": "",
        "site_internet": "https://www.ladresse.com/agence/l-adresse-onzain/122?utm_source=google",
        "latitude": 47.5001,
        "longitude": 1.1752
    },
    {
        "name": "Agence immobilière l'Adresse Vineuil",
        "postal_code": 41350,
        "commune": "Vineuil",
        "numero": "32",
        "voie": "Place du 11 Novembre",
        "lieu_dit": "",
        "activite": "Agence immobilière",
        "contact_url": "",
        "site_internet": "https://www.ladresse.com/agence/l-adresse-vineuil/104?utm_source=google",
        "latitude": 47.5819,
        "longitude": 1.3772
    },
    {
        "name": "Agence Nestenn Immobilier",
        "postal_code": 41000,
        "commune": "Blois",
        "numero": "13",
        "voie": "Rue Anne de Bretagne",
        "lieu_dit": "",
        "activite": "Agence immobilière",
        "contact_url": "https://immobilier-blois.nestenn.com/contact",
        "site_internet": "https://immobilier-blois.nestenn.com/",
        "latitude": 47.5853,
        "longitude": 1.3331
    },
    {
        "name": "Agence Nestenn Immobilier",
        "postal_code": 41350,
        "commune": "Saint-Gervais-la-Forêt",
        "numero": "320",
        "voie": "rue des Clouseaux",
        "lieu_dit": "",
        "activite": "Agence immobilière",
        "contact_url": "https://immobilier-saint-gervais-la-foret.nestenn.com/contact",
        "site_internet": "https://immobilier-saint-gervais-la-foret.nestenn.com/",
        "latitude": 47.5664,
        "longitude": 1.3671
    },
    {
        "name": "Agence Nestenn Immobilier Blois",
        "postal_code": 41000,
        "commune": "Blois",
        "numero": "4",
        "voie": "Place Louis XII",
        "lieu_dit": "",
        "activite": "Agence immobilière",
        "contact_url": "",
        "site_internet": "https://immobilier-blois.nestenn.com/",
        "latitude": 47.5857,
        "longitude": 1.334
    },
    {
        "name": "Agence Nestenn Immobilier Saint Gervais-la-Forêt",
        "postal_code": 41350,
        "commune": "Saint-Gervais-la-Forêt",
        "numero": "320d",
        "voie": "Rue des Clouseaux",
        "lieu_dit": "",
        "activite": "Agence immobilière",
        "contact_url": "",
        "site_internet": "https://immobilier-blois.nestenn.com/",
        "latitude": 47.5657,
        "longitude": 1.3682
    },
    {
        "name": "A.Guillon Traiteur",
        "postal_code": 41000,
        "commune": "Villebarou",
        "numero": "3",
        "voie": "Rue Jules Berthonneau",
        "lieu_dit": "",
        "activite": "Boucherie / commerce de viande",
        "contact_url": "",
        "site_internet": "http://www.guillontraiteur.com/",
        "latitude": 47.61,
        "longitude": 1.3073
    },
    {
        "name": "AHDO",
        "postal_code": 41120,
        "commune": "Cellettes",
        "numero": "25",
        "voie": "Rue de la Rozelle",
        "lieu_dit": "",
        "activite": "Collège",
        "contact_url": "",
        "site_internet": "https://www.ahdo.fr/contact/",
        "latitude": 47.5207,
        "longitude": 1.3926
    },
    {
        "name": "Aixam IMMO AUTO Blois",
        "postal_code": 41000,
        "commune": "Blois",
        "numero": "82",
        "voie": "Avenue de Vendome",
        "lieu_dit": "",
        "activite": "Carrosserie",
        "contact_url": "",
        "site_internet": "http://sans-permis-blois.fr/",
        "latitude": 47.5996,
        "longitude": 1.3205
    },
    {
        "name": "Alain Afflelou",
        "postal_code": 41350,
        "commune": "Vineuil",
        "numero": "48",
        "voie": "Rue Bernard Palissy",
        "lieu_dit": "",
        "activite": "Opticien",
        "contact_url": "",
        "site_internet": "",
        "latitude": 47.5704,
        "longitude": 1.3693
    },
    {
        "name": "A.L.C.V.",
        "postal_code": 41000,
        "commune": "Blois",
        "numero": "1",
        "voie": "Rue Dupre",
        "lieu_dit": "",
        "activite": "Théâtre",
        "contact_url": "",
        "site_internet": "https://www.alcv-blois.org/",
        "latitude": 47.5821,
        "longitude": 1.344
    },
    {
        "name": "ALDI Blois",
        "postal_code": 41000,
        "commune": "Blois",
        "numero": "",
        "voie": "Rue Michel Begon",
        "lieu_dit": "",
        "activite": "Supermarché",
        "contact_url": "",
        "site_internet": "https://www.aldi.fr/",
        "latitude": 47.5924,
        "longitude": 1.316
    },
    {
        "name": "Alloriental41",
        "postal_code": 41000,
        "commune": "Blois",
        "numero": "27",
        "voie": "Rue Andre Boulle",
        "lieu_dit": "",
        "activite": "Restauration rapide",
        "contact_url": "",
        "site_internet": "https://www.facebook.com/alloriental41/",
        "latitude": 47.6076,
        "longitude": 1.3203
    },
    {
        "name": "All that Jazz",
        "postal_code": 41000,
        "commune": "Blois",
        "numero": "12",
        "voie": "Avenue du Maréchal Maunoury",
        "lieu_dit": "",
        "activite": "Théâtre",
        "contact_url": "",
        "site_internet": "http://www.allthatjazz.fr/",
        "latitude": 47.5909,
        "longitude": 1.3354
    },
    {
        "name": "Altheris",
        "postal_code": 41350,
        "commune": "Vineuil",
        "numero": "20",
        "voie": "Place du 11 Novembre 1918",
        "lieu_dit": "",
        "activite": "Soins de beauté, esthétique",
        "contact_url": "",
        "site_internet": "http://altherisinstitut.fr/",
        "latitude": 47.5818,
        "longitude": 1.3777
    },
    {
        "name": "Amana",
        "postal_code": 41000,
        "commune": "Blois",
        "numero": "37",
        "voie": "Rue Saint-lubin",
        "lieu_dit": "",
        "activite": "Artisanat",
        "contact_url": "",
        "site_internet": "",
        "latitude": 47.585,
        "longitude": 1.3316
    },
    {
        "name": "Amandine",
        "postal_code": 41000,
        "commune": "Blois",
        "numero": "32bis",
        "voie": "Avenue du Maréchal Maunoury",
        "lieu_dit": "",
        "activite": "Boulangerie Pâtisserie",
        "contact_url": "",
        "site_internet": "",
        "latitude": 47.592,
        "longitude": 1.3364
    },
    {
        "name": "AMBC Spa & Beauté, Institut de beauté SPA Urbain BLOIS",
        "postal_code": 41000,
        "commune": "Blois",
        "numero": "2",
        "voie": "Rue des Orfevres",
        "lieu_dit": "",
        "activite": "Coiffure",
        "contact_url": "",
        "site_internet": "http://www.ambc-spa.com/",
        "latitude": 47.5865,
        "longitude": 1.335
    },
    {
        "name": "Ambiance florale Blois & Fleur Drive Blois",
        "postal_code": 41000,
        "commune": "Blois",
        "numero": "100",
        "voie": "Rue Montesquieu",
        "lieu_dit": "",
        "activite": "Fleuriste",
        "contact_url": "",
        "site_internet": "https://www.fleur-drive-blois.com/",
        "latitude": 47.5884,
        "longitude": 1.2989
    },
    {
        "name": "Ambiance nature",
        "postal_code": 41700,
        "commune": "Cour-Cheverny",
        "numero": "40",
        "voie": "Rue Nationale",
        "lieu_dit": "",
        "activite": "Coiffure",
        "contact_url": "",
        "site_internet": "",
        "latitude": 47.509,
        "longitude": 1.453
    },
    {
        "name": "Ambre coiffure",
        "postal_code": 41000,
        "commune": "Blois",
        "numero": "5",
        "voie": "Rue du 18 Juin 1940",
        "lieu_dit": "",
        "activite": "Coiffure",
        "contact_url": "",
        "site_internet": "http://ambre-coiffure.wix.com/ambre-coiffure",
        "latitude": 47.5909,
        "longitude": 1.3343
    },
    {
        "name": "Amel'Ô Mains d'or",
        "postal_code": 41190,
        "commune": "Saint-Lubin-en-Vergonnois",
        "numero": "20",
        "voie": "Rue des Rochettes",
        "lieu_dit": "",
        "activite": "Soins de beauté, esthétique",
        "contact_url": "",
        "site_internet": "",
        "latitude": 47.6138,
        "longitude": 1.2315
    },
    {
        "name": "Amicale Du Centre Hospitalier",
        "postal_code": 41000,
        "commune": "Blois",
        "numero": "6",
        "voie": "Rue du Puits Neuf",
        "lieu_dit": "",
        "activite": "Hôpital",
        "contact_url": "",
        "site_internet": "",
        "latitude": 47.5809,
        "longitude": 1.3363
    },
    {
        "name": "ANA M.",
        "postal_code": 41000,
        "commune": "Blois",
        "numero": "15",
        "voie": "Quai de la Saussaye",
        "lieu_dit": "",
        "activite": "Restaurant",
        "contact_url": "",
        "site_internet": "",
        "latitude": 47.5853,
        "longitude": 1.3348
    },
    {
        "name": "ANATO FLEURS - FLORIANE",
        "postal_code": 41000,
        "commune": "Blois",
        "numero": "168",
        "voie": "Rue Croix Boissée",
        "lieu_dit": "",
        "activite": "Fleuriste",
        "contact_url": "",
        "site_internet": "https://floriane-fleuriste-blois.business.site/",
        "latitude": 47.5786,
        "longitude": 1.3398
    },
    {
        "name": "ANATOLIA",
        "postal_code": 41000,
        "commune": "Blois",
        "numero": "122",
        "voie": "Rue Michel Begon",
        "lieu_dit": "",
        "activite": "Restauration rapide",
        "contact_url": "",
        "site_internet": "",
        "latitude": 47.5933,
        "longitude": 1.3115
    },
    {
        "name": "Ancien pavillon de chasse du château de Chaumont sur Loire",
        "postal_code": 41150,
        "commune": "Chaumont-sur-Loire",
        "numero": "",
        "voie": "Subleine",
        "lieu_dit": "",
        "activite": "Hôtel",
        "contact_url": "",
        "site_internet": "",
        "latitude": 47.4458,
        "longitude": 1.1707
    },
    {
        "name": "Anne de Bretagne Hotel",
        "postal_code": 41000,
        "commune": "Blois",
        "numero": "31",
        "voie": "Avenue du Docteur Jean Laigret",
        "lieu_dit": "",
        "activite": "Hôtel",
        "contact_url": "",
        "site_internet": "",
        "latitude": 47.5863,
        "longitude": 1.3268
    },
    {
        "name": "Ann'Syl Coiffure",
        "postal_code": 41120,
        "commune": "Candé-sur-Beuvron",
        "numero": "",
        "voie": "Rue de la Liberté",
        "lieu_dit": "",
        "activite": "Coiffure",
        "contact_url": "",
        "site_internet": "",
        "latitude": 47.4977,
        "longitude": 1.263
    },
    {
        "name": "Antiquités Nicole Nicko",
        "postal_code": 41000,
        "commune": "Blois",
        "numero": "32",
        "voie": "Rue Saint-lubin",
        "lieu_dit": "",
        "activite": "Antiquaire",
        "contact_url": "",
        "site_internet": "",
        "latitude": 47.5851,
        "longitude": 1.3321
    },
    {
        "name": "A Petit Feu",
        "postal_code": 41000,
        "commune": "Villebarou",
        "numero": "46",
        "voie": "Rue du Moulin",
        "lieu_dit": "",
        "activite": "Restauration rapide",
        "contact_url": "",
        "site_internet": "",
        "latitude": 47.6249,
        "longitude": 1.3348
    },
    {
        "name": "Aphrodite Coiffure",
        "postal_code": 41120,
        "commune": "Les Montils",
        "numero": "3",
        "voie": "Avenue de la Gare",
        "lieu_dit": "",
        "activite": "Coiffure",
        "contact_url": "",
        "site_internet": "https://www.planity.com/aphrodite-41120-les-montils-rpy",
        "latitude": 47.4988,
        "longitude": 1.2991
    },
    {
        "name": "Appart'City Blois",
        "postal_code": 41000,
        "commune": "Blois",
        "numero": "20",
        "voie": "Rue de la Chocolaterie",
        "lieu_dit": "",
        "activite": "Hôtel",
        "contact_url": "",
        "site_internet": "",
        "latitude": 47.5836,
        "longitude": 1.3248
    },
    {
        "name": "APRIUM PHARMACIE FOCH",
        "postal_code": 41000,
        "commune": "Blois",
        "numero": "26",
        "voie": "Avenue du Marechal Foch",
        "lieu_dit": "",
        "activite": "Pharmacie",
        "contact_url": "",
        "site_internet": "https://foch-blois.aprium-pharmacie.fr/accueil",
        "latitude": 47.5801,
        "longitude": 1.3145
    },
    {
        "name": "Arbo Concept - Piscines Magiline",
        "postal_code": 41350,
        "commune": "Saint-Gervais-la-Forêt",
        "numero": "241",
        "voie": "Rue des Clouseaux",
        "lieu_dit": "",
        "activite": "Vente de matériel pour piscine",
        "contact_url": "",
        "site_internet": "",
        "latitude": 47.5668,
        "longitude": 1.3707
    },
    {
        "name": "Aréas",
        "postal_code": 41000,
        "commune": "Blois",
        "numero": "49",
        "voie": "Rue Denis Papin",
        "lieu_dit": "",
        "activite": "Assurance",
        "contact_url": "",
        "site_internet": "",
        "latitude": 47.5875,
        "longitude": 1.3329
    },
    {
        "name": "Armenie Restauration",
        "postal_code": 41000,
        "commune": "Blois",
        "numero": "12",
        "voie": "Rue des Jacobins",
        "lieu_dit": "",
        "activite": "Restaurant",
        "contact_url": "",
        "site_internet": "",
        "latitude": 47.585,
        "longitude": 1.3325
    },
    {
        "name": "Arménie Restauration",
        "postal_code": 41000,
        "commune": "Blois",
        "numero": "12",
        "voie": "Rue des Jacobins",
        "lieu_dit": "",
        "activite": "Restauration rapide",
        "contact_url": "",
        "site_internet": "",
        "latitude": 47.585,
        "longitude": 1.3325
    },
    {
        "name": "Arnaud Brice",
        "postal_code": 41150,
        "commune": "Veuzain-sur-Loire",
        "numero": "55",
        "voie": "Grande Rue",
        "lieu_dit": "",
        "activite": "Chirurgien dentiste",
        "contact_url": "",
        "site_internet": "",
        "latitude": 47.5,
        "longitude": 1.1777
    },
    {
        "name": "ARTHUR",
        "postal_code": 41000,
        "commune": "Blois",
        "numero": "57",
        "voie": "Rue Denis Papin",
        "lieu_dit": "",
        "activite": "Vêtements",
        "contact_url": "",
        "site_internet": "",
        "latitude": 47.5874,
        "longitude": 1.3323
    },
    {
        "name": "ARTHUR LOYD BLOIS",
        "postal_code": 41000,
        "commune": "Blois",
        "numero": "21",
        "voie": "Rue de la Vallee Maillard",
        "lieu_dit": "",
        "activite": "Agence immobilière",
        "contact_url": "",
        "site_internet": "https://www.arthur-loyd.com/blois",
        "latitude": 47.6101,
        "longitude": 1.3349
    },
    {
        "name": "Artisan Boulanger",
        "postal_code": 41000,
        "commune": "Villebarou",
        "numero": "",
        "voie": "Rue de la Poste",
        "lieu_dit": "",
        "activite": "Boulangerie Pâtisserie",
        "contact_url": "",
        "site_internet": "",
        "latitude": 47.6231,
        "longitude": 1.3213
    },
    {
        "name": "Arts et Passions-Espace Collections",
        "postal_code": 41000,
        "commune": "Blois",
        "numero": "4",
        "voie": "Rue Saint-lubin",
        "lieu_dit": "",
        "activite": "Commerce",
        "contact_url": "",
        "site_internet": "",
        "latitude": 47.5855,
        "longitude": 1.333
    },
    {
        "name": "ARTTIM France EURL",
        "postal_code": 41000,
        "commune": "Blois",
        "numero": "37",
        "voie": "Allee des Pins",
        "lieu_dit": "",
        "activite": "Agence immobilière",
        "contact_url": "",
        "site_internet": "https://www.youimmo.fr/en/contact/",
        "latitude": 47.5837,
        "longitude": 1.3049
    },
    {
        "name": "Asian Gate",
        "postal_code": 41000,
        "commune": "Blois",
        "numero": "17",
        "voie": "Rue Haute",
        "lieu_dit": "",
        "activite": "Librairie",
        "contact_url": "",
        "site_internet": "",
        "latitude": 47.5877,
        "longitude": 1.3339
    },
    {
        "name": "ASSA",
        "postal_code": 41000,
        "commune": "Blois",
        "numero": "24",
        "voie": "Avenue du Maréchal Maunoury",
        "lieu_dit": "",
        "activite": "Restauration rapide",
        "contact_url": "",
        "site_internet": "http://www.assarestaurant.com/",
        "latitude": 47.5915,
        "longitude": 1.3361
    },
    {
        "name": "Association Amis D'Emmaüs",
        "postal_code": 41000,
        "commune": "Saint-Denis-sur-Loire",
        "numero": "124",
        "voie": "Route Nationale",
        "lieu_dit": "",
        "activite": "Friperie",
        "contact_url": "",
        "site_internet": "",
        "latitude": 47.6286,
        "longitude": 1.3822
    },
    {
        "name": "Ass Sportive Ecole Ingenieurs Val Loir",
        "postal_code": 41000,
        "commune": "Blois",
        "numero": "",
        "voie": "Rue de la Chocolaterie",
        "lieu_dit": "",
        "activite": "Collège",
        "contact_url": "",
        "site_internet": "",
        "latitude": 47.5838,
        "longitude": 1.3253
    },
    {
        "name": "Assu 2000",
        "postal_code": 41000,
        "commune": "Blois",
        "numero": "3",
        "voie": "Rue Denis Papin",
        "lieu_dit": "",
        "activite": "Assurance",
        "contact_url": "",
        "site_internet": "",
        "latitude": 47.5865,
        "longitude": 1.3356
    },
    {
        "name": "Assur Conseil",
        "postal_code": 41700,
        "commune": "Cour-Cheverny",
        "numero": "8",
        "voie": "Place Victor Hugo",
        "lieu_dit": "",
        "activite": "Assurance",
        "contact_url": "",
        "site_internet": "",
        "latitude": 47.5087,
        "longitude": 1.4557
    },
    {
        "name": "Atelier 116",
        "postal_code": 41350,
        "commune": "Vineuil",
        "numero": "116",
        "voie": "Avenue des Noëls",
        "lieu_dit": "",
        "activite": "Coiffure",
        "contact_url": "",
        "site_internet": "http://www.coiffeur-vineuil-atelier116.fr/contact",
        "latitude": 47.6008,
        "longitude": 1.3966
    },
    {
        "name": "Atelier Canopé 41 - Blois",
        "postal_code": 41000,
        "commune": "Blois",
        "numero": "2",
        "voie": "Rue du Limousin",
        "lieu_dit": "",
        "activite": "Emploi, formation",
        "contact_url": "",
        "site_internet": "",
        "latitude": 47.5957,
        "longitude": 1.3352
    },
    {
        "name": "Atelier Créations",
        "postal_code": 41000,
        "commune": "Blois",
        "numero": "1",
        "voie": "Rue Pierre de Blois",
        "lieu_dit": "",
        "activite": "Artisanat",
        "contact_url": "",
        "site_internet": "",
        "latitude": 47.5876,
        "longitude": 1.3348
    },
    {
        "name": "Atelier de la Bajoliere",
        "postal_code": 41000,
        "commune": "Blois",
        "numero": "33",
        "voie": "Rue Saint-lubin",
        "lieu_dit": "",
        "activite": "Décoration Design",
        "contact_url": "",
        "site_internet": "",
        "latitude": 47.585,
        "longitude": 1.3317
    },
    {
        "name": "Atelier du Bijou",
        "postal_code": 41000,
        "commune": "Blois",
        "numero": "49",
        "voie": "Rue du Commerce",
        "lieu_dit": "",
        "activite": "Bijouterie fantaisie",
        "contact_url": "",
        "site_internet": "http://www.atelierdubijou.com/",
        "latitude": 47.5868,
        "longitude": 1.3335
    },
    {
        "name": "Atelier Du Sublime",
        "postal_code": 41000,
        "commune": "Blois",
        "numero": "74",
        "voie": "Rue du Commerce",
        "lieu_dit": "",
        "activite": "Chocolatier",
        "contact_url": "",
        "site_internet": "http://www.atelierdusublimefr.com/",
        "latitude": 47.5869,
        "longitude": 1.3326
    },
    {
        "name": "Atelier Vincent Collet",
        "postal_code": 41000,
        "commune": "Blois",
        "numero": "31",
        "voie": "Rue Saint-lubin",
        "lieu_dit": "",
        "activite": "Imprimerie photocopie reliure",
        "contact_url": "",
        "site_internet": "",
        "latitude": 47.585,
        "longitude": 1.3318
    },
    {
        "name": "Atol Mon Opticien",
        "postal_code": 41150,
        "commune": "Veuzain-sur-Loire",
        "numero": "9",
        "voie": "Rue de la Justice",
        "lieu_dit": "",
        "activite": "Opticien",
        "contact_url": "",
        "site_internet": "https://www.atol.fr/opticiens/france/loir-et-cher/opticien-onzain/onzain-9-rue-de-la-justice?utm_source=Yext",
        "latitude": 47.5002,
        "longitude": 1.1745
    },
    {
        "name": "Atwill Immobilier",
        "postal_code": 41000,
        "commune": "Blois",
        "numero": "59",
        "voie": "Rue Denis Papin",
        "lieu_dit": "",
        "activite": "Agence immobilière",
        "contact_url": "",
        "site_internet": "",
        "latitude": 47.5873,
        "longitude": 1.3322
    },
    {
        "name": "Auberge de la Caillère",
        "postal_code": 41120,
        "commune": "Candé-sur-Beuvron",
        "numero": "36",
        "voie": "Route des Montils",
        "lieu_dit": "",
        "activite": "Hôtel",
        "contact_url": "",
        "site_internet": "",
        "latitude": 47.4941,
        "longitude": 1.2703
    },
    {
        "name": "Auberge Ligerienne Cote Loire",
        "postal_code": 41000,
        "commune": "Blois",
        "numero": "2",
        "voie": "Place de la Grève",
        "lieu_dit": "",
        "activite": "Hôtel restaurant",
        "contact_url": "",
        "site_internet": "",
        "latitude": 47.5827,
        "longitude": 1.3309
    },
    {
        "name": "Au Bistrot d'Eugénie",
        "postal_code": 41350,
        "commune": "Vineuil",
        "numero": "235",
        "voie": "Route de Chambord",
        "lieu_dit": "",
        "activite": "Restaurant",
        "contact_url": "",
        "site_internet": "",
        "latitude": 47.5763,
        "longitude": 1.3991
    },
    {
        "name": "Au Boeuf Du Limousin",
        "postal_code": 41000,
        "commune": "Blois",
        "numero": "13",
        "voie": "Rue Haute",
        "lieu_dit": "",
        "activite": "Boucherie / commerce de viande",
        "contact_url": "",
        "site_internet": "https://www.boucherie-charcuterie-bellil.com/",
        "latitude": 47.5876,
        "longitude": 1.3342
    },
    {
        "name": "Au Camp de Drap D'Or",
        "postal_code": 41000,
        "commune": "Blois",
        "numero": "15",
        "voie": "Place du Château",
        "lieu_dit": "",
        "activite": "Accessoires",
        "contact_url": "",
        "site_internet": "",
        "latitude": 47.5862,
        "longitude": 1.3321
    },
    {
        "name": "Auchan Drive",
        "postal_code": 41350,
        "commune": "Vineuil",
        "numero": "99",
        "voie": "Rue Pierre Gilles de Gennes",
        "lieu_dit": "",
        "activite": "Vente à distance",
        "contact_url": "",
        "site_internet": "",
        "latitude": 47.5709,
        "longitude": 1.371
    },
    {
        "name": "Auchan La Vie En Or - BLOIS",
        "postal_code": 41350,
        "commune": "Vineuil",
        "numero": "99",
        "voie": "Rue Pierre Gilles de Gennes",
        "lieu_dit": "",
        "activite": "Bijouterie joaillerie",
        "contact_url": "",
        "site_internet": "",
        "latitude": 47.5721,
        "longitude": 1.3734
    },
    {
        "name": "Audianne Bideau Carole",
        "postal_code": 41150,
        "commune": "Veuzain-sur-Loire",
        "numero": "4",
        "voie": "Rue des Rapins",
        "lieu_dit": "",
        "activite": "Coiffure",
        "contact_url": "",
        "site_internet": "",
        "latitude": 47.4999,
        "longitude": 1.1733
    },
    {
        "name": "Audi Espace Auto Blois",
        "postal_code": 41000,
        "commune": "Blois",
        "numero": "13",
        "voie": "Rue des Guignieres",
        "lieu_dit": "",
        "activite": "Carrosserie",
        "contact_url": "",
        "site_internet": "https://www.audi-blois.fr/",
        "latitude": 47.6162,
        "longitude": 1.3294
    },
    {
        "name": "Audilab",
        "postal_code": 41000,
        "commune": "Blois",
        "numero": "12",
        "voie": "Rue du Mal de Lattre de Tassigny",
        "lieu_dit": "",
        "activite": "Audio prothésiste",
        "contact_url": "",
        "site_internet": "",
        "latitude": 47.5867,
        "longitude": 1.3367
    },
    {
        "name": "Au Fil du Corps",
        "postal_code": 41150,
        "commune": "Veuzain-sur-Loire",
        "numero": "15",
        "voie": "Rue de la Justice",
        "lieu_dit": "",
        "activite": "Soins de beauté, esthétique",
        "contact_url": "",
        "site_internet": "https://aufilducorps.fr/",
        "latitude": 47.5003,
        "longitude": 1.1741
    },
    {
        "name": "AU JARDIN D'ALEX",
        "postal_code": 41350,
        "commune": "Saint-Gervais-la-Forêt",
        "numero": "28",
        "voie": "Route Nationale",
        "lieu_dit": "",
        "activite": "Fleuriste",
        "contact_url": "",
        "site_internet": "",
        "latitude": 47.5727,
        "longitude": 1.3563
    },
    {
        "name": "Au Pain Croissant",
        "postal_code": 41700,
        "commune": "Cheverny",
        "numero": "26",
        "voie": "Rue du Chêne des Dames",
        "lieu_dit": "",
        "activite": "Boulangerie Pâtisserie",
        "contact_url": "",
        "site_internet": "",
        "latitude": 47.4983,
        "longitude": 1.46
    },
    {
        "name": "Au Petit Troglo",
        "postal_code": 41150,
        "commune": "Chaumont-sur-Loire",
        "numero": "33",
        "voie": "Rue du Mal de Lattre de Tassigny",
        "lieu_dit": "",
        "activite": "Restaurant",
        "contact_url": "",
        "site_internet": "https://www.facebook.com/aupetittroglo/",
        "latitude": 47.4807,
        "longitude": 1.1856
    },
    {
        "name": "Au Studio",
        "postal_code": 41330,
        "commune": "Fossé",
        "numero": "4",
        "voie": "Impasse Santos Dumont",
        "lieu_dit": "",
        "activite": "Coiffure",
        "contact_url": "",
        "site_internet": "",
        "latitude": 47.6313,
        "longitude": 1.284
    },
    {
        "name": "Auto-école Begon",
        "postal_code": 41000,
        "commune": "Blois",
        "numero": "178",
        "voie": "Rue de Cabochon",
        "lieu_dit": "",
        "activite": "Auto école",
        "contact_url": "",
        "site_internet": "https://www.vroomvroom.fr/auto-ecoles/loir-et-cher/blois/auto-ecole-begon",
        "latitude": 47.5764,
        "longitude": 1.3031
    },
    {
        "name": "Auto-école ECF BLOIS",
        "postal_code": 41000,
        "commune": "Blois",
        "numero": "19",
        "voie": "Rue du Bourg Neuf",
        "lieu_dit": "",
        "activite": "Auto école",
        "contact_url": "",
        "site_internet": "https://www.ecf.asso.fr/Auto-ecole/CERCA/Auto-ecole-ECF-BLOIS?utm_source=gmb",
        "latitude": 47.5897,
        "longitude": 1.3311
    },
    {
        "name": "Auto-école Référence 41",
        "postal_code": 41000,
        "commune": "Blois",
        "numero": "4",
        "voie": "Avenue du Marechal Leclerc",
        "lieu_dit": "",
        "activite": "Auto école",
        "contact_url": "",
        "site_internet": "",
        "latitude": 47.5921,
        "longitude": 1.3366
    },
    {
        "name": "Auto-école Route 41",
        "postal_code": 41120,
        "commune": "Les Montils",
        "numero": "2",
        "voie": "Rue de Saint Lazare",
        "lieu_dit": "",
        "activite": "Auto école",
        "contact_url": "",
        "site_internet": "",
        "latitude": 47.4976,
        "longitude": 1.2994
    },
    {
        "name": "Auto école trajectoire",
        "postal_code": 41330,
        "commune": "Fossé",
        "numero": "4",
        "voie": "Impasse Santos Dumont",
        "lieu_dit": "",
        "activite": "Auto école",
        "contact_url": "",
        "site_internet": "",
        "latitude": 47.6313,
        "longitude": 1.284
    },
    {
        "name": "Auto Moto Ecole CEFR Jean Jaures",
        "postal_code": 41000,
        "commune": "Blois",
        "numero": "18",
        "voie": "Avenue du Maréchal Maunoury",
        "lieu_dit": "",
        "activite": "Auto école",
        "contact_url": "",
        "site_internet": "http://auto-ecole-blois.com/",
        "latitude": 47.5911,
        "longitude": 1.3358
    },
    {
        "name": "Auto Moto École Les Noels",
        "postal_code": 41350,
        "commune": "Vineuil",
        "numero": "125",
        "voie": "Avenue des Tailles",
        "lieu_dit": "",
        "activite": "Auto école",
        "contact_url": "",
        "site_internet": "http://www.auto-ecole-blois.com/",
        "latitude": 47.5947,
        "longitude": 1.3889
    },
    {
        "name": "Auto Moto École Les Noels",
        "postal_code": 41350,
        "commune": "Vineuil",
        "numero": "",
        "voie": "Avenue des Tailles",
        "lieu_dit": "",
        "activite": "Auto école",
        "contact_url": "",
        "site_internet": "http://www.auto-ecole-blois.com/",
        "latitude": 47.5894,
        "longitude": 1.3843
    },
    {
        "name": "Auto Moto Ecole Onzain",
        "postal_code": 41150,
        "commune": "Veuzain-sur-Loire",
        "numero": "19",
        "voie": "Rue de la Justice",
        "lieu_dit": "",
        "activite": "Auto école",
        "contact_url": "",
        "site_internet": "https://automotoecoleonzai.wixsite.com/autoecoleonzain",
        "latitude": 47.5004,
        "longitude": 1.1737
    },
    {
        "name": "Autour du Sushi",
        "postal_code": 41000,
        "commune": "Blois",
        "numero": "5",
        "voie": "Rue Denis Papin",
        "lieu_dit": "",
        "activite": "Restaurant",
        "contact_url": "",
        "site_internet": "",
        "latitude": 47.5866,
        "longitude": 1.3355
    },
    {
        "name": "Aux Coureurs des Bois",
        "postal_code": 41350,
        "commune": "Saint-Gervais-la-Forêt",
        "numero": "",
        "voie": "Esplanade de la Patte d'Oie",
        "lieu_dit": "",
        "activite": "Armurerie coutellerie",
        "contact_url": "",
        "site_internet": "",
        "latitude": 47.5637,
        "longitude": 1.3736
    },
    {
        "name": "aux sports jeunes citoyens 41",
        "postal_code": 41000,
        "commune": "Blois",
        "numero": "",
        "voie": "Boulevard Vauban",
        "lieu_dit": "",
        "activite": "Piscine, centre aquatique",
        "contact_url": "",
        "site_internet": "",
        "latitude": 47.5928,
        "longitude": 1.3405
    },
    {
        "name": "Avant l'Heure Blois",
        "postal_code": 41000,
        "commune": "Blois",
        "numero": "80",
        "voie": "Avenue du Maréchal Maunoury",
        "lieu_dit": "",
        "activite": "Fleuriste",
        "contact_url": "",
        "site_internet": "",
        "latitude": 47.5985,
        "longitude": 1.344
    },
    {
        "name": "Avarum",
        "postal_code": 41120,
        "commune": "Chailles",
        "numero": "31",
        "voie": "Rue de l’Eglise",
        "lieu_dit": "",
        "activite": "Restaurant",
        "contact_url": "",
        "site_internet": "",
        "latitude": 47.5401,
        "longitude": 1.3119
    },
    {
        "name": "AVL Terrain 41",
        "postal_code": 41350,
        "commune": "Saint-Gervais-la-Forêt",
        "numero": "10",
        "voie": "Rue des Landiers",
        "lieu_dit": "",
        "activite": "Agence immobilière",
        "contact_url": "",
        "site_internet": "http://www.terrain41.com/",
        "latitude": 47.5652,
        "longitude": 1.3649
    },
    {
        "name": "AXA Assurance et Banque Corona-Jacquet",
        "postal_code": 41000,
        "commune": "Blois",
        "numero": "157",
        "voie": "Avenue du Maréchal Maunoury",
        "lieu_dit": "",
        "activite": "Assurance",
        "contact_url": "",
        "site_internet": "",
        "latitude": 47.6013,
        "longitude": 1.3476
    },
    {
        "name": "AXA Assurance et Banque Eirl Guillemin Frederic",
        "postal_code": 41000,
        "commune": "Blois",
        "numero": "7",
        "voie": "Rue Anne de Bretagne",
        "lieu_dit": "",
        "activite": "Assurance",
        "contact_url": "",
        "site_internet": "",
        "latitude": 47.5852,
        "longitude": 1.3329
    },
    {
        "name": "AXA Assurance et Banque Eirl Guillemin Frederic",
        "postal_code": 41000,
        "commune": "Blois",
        "numero": "7",
        "voie": "Rue Anne de Bretagne",
        "lieu_dit": "",
        "activite": "Assurance",
        "contact_url": "",
        "site_internet": "",
        "latitude": 47.5852,
        "longitude": 1.3329
    },
    {
        "name": "Axel Maroquinerie",
        "postal_code": 41000,
        "commune": "Blois",
        "numero": "59",
        "voie": "Rue Denis Papin",
        "lieu_dit": "",
        "activite": "Maroquinerie sellerie articles de voyage",
        "contact_url": "https://www.axelmaroquinerie.com/contact.html",
        "site_internet": "https://www.axelmaroquinerie.com/",
        "latitude": 47.5873,
        "longitude": 1.3322
    },
    {
        "name": "Backstage RemyB - Salon de coiffure mixte",
        "postal_code": 41000,
        "commune": "Blois",
        "numero": "",
        "voie": "Rue du 28 Janvier",
        "lieu_dit": "",
        "activite": "Coiffure",
        "contact_url": "",
        "site_internet": "https://backstage-remyb.fr/",
        "latitude": 47.5799,
        "longitude": 1.3429
    },
    {
        "name": "Banque Populaire Val de France",
        "postal_code": 41000,
        "commune": "Blois",
        "numero": "1",
        "voie": "Rue du Bout des Haies",
        "lieu_dit": "",
        "activite": "Banques, caisses d'épargne",
        "contact_url": "",
        "site_internet": "https://www.banquepopulaire.fr/valdefrance/",
        "latitude": 47.6134,
        "longitude": 1.327
    },
    {
        "name": "BANQUE POPULAIRE VAL DE FRANCE - BLOIS DENIS PAPIN",
        "postal_code": 41000,
        "commune": "Blois",
        "numero": "7",
        "voie": "Rue Denis Papin",
        "lieu_dit": "",
        "activite": "Banques, caisses d'épargne",
        "contact_url": "",
        "site_internet": "",
        "latitude": 47.5866,
        "longitude": 1.3354
    },
    {
        "name": "BANQUE POPULAIRE VAL DE FRANCE - SAINT GERVAIS LA PATTE D`OIE",
        "postal_code": 41350,
        "commune": "Saint-Gervais-la-Forêt",
        "numero": "395",
        "voie": "Rue Georges Méliès",
        "lieu_dit": "",
        "activite": "Banques, caisses d'épargne",
        "contact_url": "",
        "site_internet": "",
        "latitude": 47.5649,
        "longitude": 1.3731
    },
    {
        "name": "Banque Tarneaud",
        "postal_code": 41000,
        "commune": "Blois",
        "numero": "3",
        "voie": "Rue Porte- Cote",
        "lieu_dit": "",
        "activite": "Banques, caisses d'épargne",
        "contact_url": "",
        "site_internet": "",
        "latitude": 47.587,
        "longitude": 1.3313
    },
    {
        "name": "Bar à Sourcils - Benefit Brow Bar Blois",
        "postal_code": 41000,
        "commune": "Blois",
        "numero": "27",
        "voie": "Rue Denis Papin",
        "lieu_dit": "",
        "activite": "Soins de beauté, esthétique",
        "contact_url": "",
        "site_internet": "https://www.benefitcosmetics.com/fr-fr%3Fy_source%3D1_MzAwNDc2NzUtNzE1LWxvY2F0aW9uLndlYnNpdGU%253D",
        "latitude": 47.5871,
        "longitude": 1.3346
    },
    {
        "name": "Basic-Fit",
        "postal_code": 41000,
        "commune": "Blois",
        "numero": "",
        "voie": "Avenue de Chateaudun",
        "lieu_dit": "",
        "activite": "Sports et loisirs",
        "contact_url": "",
        "site_internet": "https://www.basic-fit.com/fr-fr/salle-de-sport/basic-fit-blois-avenue-de-chateaudun-2d650e038eff47fba73077c7feabc75a.html?utm_medium=yext",
        "latitude": 47.6036,
        "longitude": 1.3284
    },
    {
        "name": "Basilic & Co",
        "postal_code": 41000,
        "commune": "Blois",
        "numero": "14",
        "voie": "Avenue du Maréchal Maunoury",
        "lieu_dit": "",
        "activite": "Restauration rapide",
        "contact_url": "",
        "site_internet": "https://basilic-and-co.com/restaurants/pizzeria-blois-maunoury/",
        "latitude": 47.591,
        "longitude": 1.3356
    },
    {
        "name": "B Auto-Ecole",
        "postal_code": 41700,
        "commune": "Cour-Cheverny",
        "numero": "116",
        "voie": "Rue Nationale",
        "lieu_dit": "",
        "activite": "Auto école",
        "contact_url": "",
        "site_internet": "",
        "latitude": 47.5076,
        "longitude": 1.457
    },
    {
        "name": "B Auto - O - École",
        "postal_code": 41700,
        "commune": "Cour-Cheverny",
        "numero": "",
        "voie": "Rue Nationale",
        "lieu_dit": "",
        "activite": "Auto école",
        "contact_url": "",
        "site_internet": "",
        "latitude": 47.5092,
        "longitude": 1.4537
    },
    {
        "name": "BBC Coiffure",
        "postal_code": 41190,
        "commune": "Herbault",
        "numero": "3",
        "voie": "Rue de la Valstière",
        "lieu_dit": "",
        "activite": "Coiffure",
        "contact_url": "",
        "site_internet": "http://www.bbccoiffure.fr/",
        "latitude": 47.6082,
        "longitude": 1.1487
    },
    {
        "name": "B&B Hotels",
        "postal_code": 41350,
        "commune": "Vineuil",
        "numero": "100",
        "voie": "Rue Lavoisier",
        "lieu_dit": "",
        "activite": "Hôtel",
        "contact_url": "",
        "site_internet": "",
        "latitude": 47.574,
        "longitude": 1.3704
    },
    {
        "name": "Beauté dorée Tresse",
        "postal_code": 41000,
        "commune": "Blois",
        "numero": "36",
        "voie": "Rue du Maréchal de Tourville",
        "lieu_dit": "",
        "activite": "Coiffure",
        "contact_url": "",
        "site_internet": "https://www.facebook.com/Beaut%C3%A9-dor%C3%A9e-cosmetique-afro-cara%C3%AFbeen-europeen-1720865598194858/",
        "latitude": 47.5909,
        "longitude": 1.3069
    },
    {
        "name": "Beauty Studio by Mel",
        "postal_code": 41150,
        "commune": "Valloire-sur-Cisse",
        "numero": "40",
        "voie": "Rue du Clos des Beaumonts",
        "lieu_dit": "",
        "activite": "Soins de beauté, esthétique",
        "contact_url": "",
        "site_internet": "https://www.facebook.com/BeautyStudio.by.Mel/",
        "latitude": 47.5335,
        "longitude": 1.2454
    },
    {
        "name": "Beauty Success",
        "postal_code": 41000,
        "commune": "Villebarou",
        "numero": "2",
        "voie": "Rue des Couratieres",
        "lieu_dit": "",
        "activite": "Soins de beauté, esthétique",
        "contact_url": "",
        "site_internet": "https://www.beautysuccess.fr/nos-points-de-vente/villebarou/538/",
        "latitude": 47.6227,
        "longitude": 1.2976
    },
    {
        "name": "Believe Beauty",
        "postal_code": 41000,
        "commune": "Blois",
        "numero": "35",
        "voie": "Avenue du Marechal Foch",
        "lieu_dit": "",
        "activite": "Soins de beauté, esthétique",
        "contact_url": "",
        "site_internet": "https://app.kiute.com/believe-beauty/home",
        "latitude": 47.5791,
        "longitude": 1.3112
    },
    {
        "name": "Bellivier Viande SARL",
        "postal_code": 16230,
        "commune": "Cellettes",
        "numero": "",
        "voie": "La Metairie",
        "lieu_dit": "",
        "activite": "Boucherie / commerce de viande",
        "contact_url": "",
        "site_internet": "",
        "latitude": 45.876,
        "longitude": 0.1336
    },
    {
        "name": "Benattou Fatima",
        "postal_code": 41350,
        "commune": "Saint-Gervais-la-Forêt",
        "numero": "14",
        "voie": "Rue des Alises",
        "lieu_dit": "",
        "activite": "Chirurgien dentiste",
        "contact_url": "",
        "site_internet": "",
        "latitude": 47.5635,
        "longitude": 1.3675
    },
    {
        "name": "Berlîner",
        "postal_code": 41000,
        "commune": "Blois",
        "numero": "3",
        "voie": "Rue Henri Drussy",
        "lieu_dit": "",
        "activite": "Restauration rapide",
        "contact_url": "",
        "site_internet": "https://www.berliner-kebab-blois.fr/",
        "latitude": 47.5865,
        "longitude": 1.3361
    },
    {
        "name": "Best Western Blois Chateau",
        "postal_code": 41000,
        "commune": "Blois",
        "numero": "8",
        "voie": "Rue du Docteur Jean Laigret",
        "lieu_dit": "",
        "activite": "Hôtel",
        "contact_url": "",
        "site_internet": "",
        "latitude": 47.5856,
        "longitude": 1.3249
    },
    {
        "name": "Best Western Blois Château",
        "postal_code": 41000,
        "commune": "Blois",
        "numero": "",
        "voie": "Avenue du Docteur Jean Laigret",
        "lieu_dit": "",
        "activite": "Hôtel",
        "contact_url": "",
        "site_internet": "",
        "latitude": 47.586,
        "longitude": 1.3268
    },
    {
        "name": "BibliEnCisse",
        "postal_code": 41190,
        "commune": "Valencisse",
        "numero": "",
        "voie": "Rue du 11 Novembre",
        "lieu_dit": "",
        "activite": "Bibliothèque médiathèque",
        "contact_url": "",
        "site_internet": "",
        "latitude": 47.592,
        "longitude": 1.1972
    },
    {
        "name": "Bibliothèque",
        "postal_code": 41190,
        "commune": "Herbault",
        "numero": "1",
        "voie": "Rue de Touraine",
        "lieu_dit": "",
        "activite": "Bibliothèque médiathèque",
        "contact_url": "",
        "site_internet": "https://www.ville-herbault.fr/culture-et-loisirs/la-bibliotheque/",
        "latitude": 47.6039,
        "longitude": 1.1395
    },
    {
        "name": "Bibliothèque Abbé Grégoire",
        "postal_code": 41000,
        "commune": "Blois",
        "numero": "6",
        "voie": "Place Jean Jaures",
        "lieu_dit": "",
        "activite": "Bibliothèque médiathèque",
        "contact_url": "",
        "site_internet": "http://bibliotheques.agglopolys.fr/",
        "latitude": 47.5903,
        "longitude": 1.3367
    },
    {
        "name": "Bibliothèque départementale - Loir-et-Cher",
        "postal_code": 41000,
        "commune": "Blois",
        "numero": "",
        "voie": "Rue Jean-baptiste Charcot",
        "lieu_dit": "",
        "activite": "Bibliothèque médiathèque",
        "contact_url": "",
        "site_internet": "",
        "latitude": 47.594,
        "longitude": 1.3069
    },
    {
        "name": "BIBLIOTHEQUE DE VINEUIL",
        "postal_code": 41350,
        "commune": "Vineuil",
        "numero": "10",
        "voie": "Rue des Ecoles",
        "lieu_dit": "",
        "activite": "Bibliothèque médiathèque",
        "contact_url": "https://www.bibliotheque-vineuil41.fr/contact",
        "site_internet": "https://www.bibliotheque-vineuil41.fr",
        "latitude": 47.5862,
        "longitude": 1.3761
    },
    {
        "name": "Bibliothèque municipale",
        "postal_code": 41700,
        "commune": "Cour-Cheverny",
        "numero": "",
        "voie": "place gambetta",
        "lieu_dit": "",
        "activite": "Bibliothèque médiathèque",
        "contact_url": "",
        "site_internet": "",
        "latitude": 47.509,
        "longitude": 1.4563
    },
    {
        "name": "Bibliothèque Municipale",
        "postal_code": 41120,
        "commune": "Cormeray",
        "numero": "28",
        "voie": "Rue de la République",
        "lieu_dit": "",
        "activite": "Bibliothèque médiathèque",
        "contact_url": "",
        "site_internet": "",
        "latitude": 47.492,
        "longitude": 1.4061
    },
    {
        "name": "BIBLIOTHÈQUE MUNICIPALE",
        "postal_code": 41120,
        "commune": "Chailles",
        "numero": "",
        "voie": "Rue des Amandiers",
        "lieu_dit": "",
        "activite": "Bibliothèque médiathèque",
        "contact_url": "",
        "site_internet": "",
        "latitude": 47.5286,
        "longitude": 1.3067
    },
    {
        "name": "BIBLIOTHÈQUE MUNICIPALE",
        "postal_code": 41000,
        "commune": "Blois",
        "numero": "10",
        "voie": "Rue des Ecoles",
        "lieu_dit": "",
        "activite": "Bibliothèque médiathèque",
        "contact_url": "",
        "site_internet": "",
        "latitude": 47.5938,
        "longitude": 1.3285
    },
    {
        "name": "BIBLIOTHÈQUE MUNICIPALE",
        "postal_code": 41000,
        "commune": "Saint-Sulpice-de-Pommeray",
        "numero": "12",
        "voie": "Rue des Tilleuls",
        "lieu_dit": "",
        "activite": "Bibliothèque médiathèque",
        "contact_url": "",
        "site_internet": "",
        "latitude": 47.6074,
        "longitude": 1.2758
    },
    {
        "name": "Bibliothèque Sonore de l'Association des Donneurs de Voix",
        "postal_code": 41000,
        "commune": "Blois",
        "numero": "12",
        "voie": "Rue de la Garenne",
        "lieu_dit": "",
        "activite": "Bibliothèque médiathèque",
        "contact_url": "",
        "site_internet": "https://lesbibliothequessonores.org/41B",
        "latitude": 47.5876,
        "longitude": 1.3256
    },
    {
        "name": "Bien Etre",
        "postal_code": 41000,
        "commune": "Villebarou",
        "numero": "14",
        "voie": "Rue Maurice Pasquier",
        "lieu_dit": "",
        "activite": "Soins de beauté, esthétique",
        "contact_url": "",
        "site_internet": "https://www.planity.com/institut-bien-etre-41000-villebarou",
        "latitude": 47.6225,
        "longitude": 1.3251
    },
    {
        "name": "Bien Être Zen et Sens institut de beauté",
        "postal_code": 41120,
        "commune": "Les Montils",
        "numero": "17",
        "voie": "Rue des Bourgeons Rouges",
        "lieu_dit": "",
        "activite": "Soins de beauté, esthétique",
        "contact_url": "",
        "site_internet": "https://www.facebook.com/domicat41/",
        "latitude": 47.5017,
        "longitude": 1.3009
    },
    {
        "name": "Bijou Brigitte",
        "postal_code": 41000,
        "commune": "Blois",
        "numero": "73",
        "voie": "Rue du Commerce",
        "lieu_dit": "",
        "activite": "Bijouterie joaillerie",
        "contact_url": "",
        "site_internet": "https://www.bijou-brigitte.com/fr",
        "latitude": 47.587,
        "longitude": 1.3326
    },
    {
        "name": "Bijouterie SO OR - Blois",
        "postal_code": 41000,
        "commune": "Villebarou",
        "numero": "2",
        "voie": "Rue des Couratieres",
        "lieu_dit": "",
        "activite": "Bijouterie joaillerie",
        "contact_url": "",
        "site_internet": "https://www.so-or.com/content/64-bijouterie-so-or-a-blois",
        "latitude": 47.6227,
        "longitude": 1.2976
    },
    {
        "name": "Bijouterie SO OR - Blois",
        "postal_code": 41000,
        "commune": "Villebarou",
        "numero": "6",
        "voie": "Rue des Couratieres",
        "lieu_dit": "",
        "activite": "Bijouterie joaillerie",
        "contact_url": "",
        "site_internet": "https://www.so-or.com/content/64-bijouterie-so-or-a-blois",
        "latitude": 47.6199,
        "longitude": 1.3008
    },
    {
        "name": "Bijoutier David Maruccia",
        "postal_code": 41000,
        "commune": "Blois",
        "numero": "55",
        "voie": "Rue Etienne Baudet",
        "lieu_dit": "",
        "activite": "Bijouterie joaillerie",
        "contact_url": "",
        "site_internet": "",
        "latitude": 47.5879,
        "longitude": 1.3116
    },
    {
        "name": "Billy Eric",
        "postal_code": 41000,
        "commune": "Blois",
        "numero": "14",
        "voie": "Quai Villebois Mareuil",
        "lieu_dit": "",
        "activite": "Boucherie / commerce de viande",
        "contact_url": "",
        "site_internet": "",
        "latitude": 47.5835,
        "longitude": 1.3385
    },
    {
        "name": "Biocoop L'Epi Vert",
        "postal_code": 41000,
        "commune": "Blois",
        "numero": "51",
        "voie": "Avenue de Chateaudun",
        "lieu_dit": "",
        "activite": "Boulangerie Pâtisserie",
        "contact_url": "",
        "site_internet": "",
        "latitude": 47.6004,
        "longitude": 1.3284
    },
    {
        "name": "BIOGROUP LABORIZON CENTRE - Laboratoire de Blois",
        "postal_code": 41000,
        "commune": "Blois",
        "numero": "6",
        "voie": "Place de la Resistance",
        "lieu_dit": "",
        "activite": "Laboratoire d'analyse médicale",
        "contact_url": "",
        "site_internet": "https://laboratoires.biogroup.fr/loir-et-cher/blois/6-place-de-la-resistance",
        "latitude": 47.5862,
        "longitude": 1.3356
    },
    {
        "name": "BIO MEDI QUAL CENTRE St Gervais-La-Forêt Laboratoire d'Analyses Médicales",
        "postal_code": 41350,
        "commune": "Saint-Gervais-la-Forêt",
        "numero": "137",
        "voie": "Route Nationale",
        "lieu_dit": "",
        "activite": "Laboratoire d'analyse médicale",
        "contact_url": "",
        "site_internet": "https://biomediqualcentre.fr/",
        "latitude": 47.5619,
        "longitude": 1.3719
    },
    {
        "name": "Biotif'L Beaute",
        "postal_code": 41000,
        "commune": "Blois",
        "numero": "6",
        "voie": "Quai Saint- Jean",
        "lieu_dit": "",
        "activite": "Soins de beauté, esthétique",
        "contact_url": "",
        "site_internet": "",
        "latitude": 47.5882,
        "longitude": 1.339
    },
    {
        "name": "Biotif'l Beauté",
        "postal_code": 41000,
        "commune": "Blois",
        "numero": "6bis",
        "voie": "Quai Saint- Jean",
        "lieu_dit": "",
        "activite": "Coiffure",
        "contact_url": "",
        "site_internet": "",
        "latitude": 47.5883,
        "longitude": 1.339
    },
    {
        "name": "Black Philippe",
        "postal_code": 41150,
        "commune": "Veuzain-sur-Loire",
        "numero": "58",
        "voie": "Rue de Chouzy",
        "lieu_dit": "",
        "activite": "Photographie",
        "contact_url": "",
        "site_internet": "",
        "latitude": 47.5059,
        "longitude": 1.2039
    },
    {
        "name": "Bleu Libellule",
        "postal_code": 41350,
        "commune": "Vineuil",
        "numero": "",
        "voie": "Rue Lavoisier",
        "lieu_dit": "",
        "activite": "Coiffure",
        "contact_url": "",
        "site_internet": "https://www.bleulibellule.com/magasins/bleu-libellule-blois-vineuil.html?utm_source=GMB",
        "latitude": 47.5729,
        "longitude": 1.3716
    },
    {
        "name": "Blois-Immo",
        "postal_code": 41000,
        "commune": "Blois",
        "numero": "3",
        "voie": "Avenue du President Wilson",
        "lieu_dit": "",
        "activite": "Agence immobilière",
        "contact_url": "",
        "site_internet": "http://www.blois-immo.fr/",
        "latitude": 47.5838,
        "longitude": 1.3393
    },
    {
        "name": "BNP Paribas - Blois",
        "postal_code": 41000,
        "commune": "Blois",
        "numero": "42",
        "voie": "Rue Denis Papin",
        "lieu_dit": "",
        "activite": "Banques, caisses d'épargne",
        "contact_url": "",
        "site_internet": "https://agences.mabanque.bnpparibas/?ag=00237",
        "latitude": 47.5875,
        "longitude": 1.3337
    },
    {
        "name": "BNP Paribas - Saint Gervais Vineuil",
        "postal_code": 41350,
        "commune": "Saint-Gervais-la-Forêt",
        "numero": "10",
        "voie": "Rue des Perrières",
        "lieu_dit": "",
        "activite": "Banques, caisses d'épargne",
        "contact_url": "",
        "site_internet": "https://agences.mabanque.bnpparibas/?ag=02254",
        "latitude": 47.5662,
        "longitude": 1.3687
    },
    {
        "name": "Bo.Bien-être et beauté",
        "postal_code": 41120,
        "commune": "Cormeray",
        "numero": "58f",
        "voie": "Route des Fuzelieres",
        "lieu_dit": "",
        "activite": "Soins de beauté, esthétique",
        "contact_url": "",
        "site_internet": "https://www.bobienetretbeaute41institut.com/",
        "latitude": 47.4754,
        "longitude": 1.3975
    },
    {
        "name": "Bon Plan Permis - Location de voiture auto-école à double commande",
        "postal_code": 41000,
        "commune": "Blois",
        "numero": "2",
        "voie": "Rue de la Vallee Maillard",
        "lieu_dit": "",
        "activite": "Auto école",
        "contact_url": "",
        "site_internet": "",
        "latitude": 47.6096,
        "longitude": 1.3286
    },
    {
        "name": "Bouchara",
        "postal_code": 41000,
        "commune": "Blois",
        "numero": "29",
        "voie": "Rue Denis Papin",
        "lieu_dit": "",
        "activite": "Meubles ameublement",
        "contact_url": "",
        "site_internet": "",
        "latitude": 47.5873,
        "longitude": 1.3344
    },
    {
        "name": "Boucherie Charcuterie des Cormiers",
        "postal_code": 41120,
        "commune": "Chailles",
        "numero": "81",
        "voie": "Rue Nationale",
        "lieu_dit": "",
        "activite": "Boucherie / commerce de viande",
        "contact_url": "",
        "site_internet": "http://www.boucherie-des-cormiers.fr/",
        "latitude": 47.5293,
        "longitude": 1.3065
    },
    {
        "name": "Boucherie de l'Hôtel de ville",
        "postal_code": 41350,
        "commune": "Vineuil",
        "numero": "11",
        "voie": "Rue de la Republique",
        "lieu_dit": "",
        "activite": "Boucherie / commerce de viande",
        "contact_url": "",
        "site_internet": "",
        "latitude": 47.5814,
        "longitude": 1.377
    },
    {
        "name": "BOUCHERIE DU MARCHÉ",
        "postal_code": 41000,
        "commune": "Blois",
        "numero": "29",
        "voie": "Rue du Maréchal de Tourville",
        "lieu_dit": "",
        "activite": "Boucherie / commerce de viande",
        "contact_url": "",
        "site_internet": "https://www.facebook.com/boucheriedumarcheblois",
        "latitude": 47.5907,
        "longitude": 1.3066
    },
    {
        "name": "Boucherie El Jawda",
        "postal_code": 41000,
        "commune": "Blois",
        "numero": "42",
        "voie": "Avenue de France",
        "lieu_dit": "",
        "activite": "Boucherie / commerce de viande",
        "contact_url": "",
        "site_internet": "",
        "latitude": 47.5963,
        "longitude": 1.3159
    },
    {
        "name": "Boucherie El Medina",
        "postal_code": 41000,
        "commune": "Blois",
        "numero": "131",
        "voie": "Rue Michel Begon",
        "lieu_dit": "",
        "activite": "Boucherie / commerce de viande",
        "contact_url": "",
        "site_internet": "https://boucherie-el-medina.business.site/",
        "latitude": 47.5939,
        "longitude": 1.3099
    },
    {
        "name": "Boucherie Michel",
        "postal_code": 41150,
        "commune": "Valloire-sur-Cisse",
        "numero": "10",
        "voie": "Place de la Mairie",
        "lieu_dit": "",
        "activite": "Boucherie / commerce de viande",
        "contact_url": "",
        "site_internet": "",
        "latitude": 47.5219,
        "longitude": 1.2456
    },
    {
        "name": "Boucherie my viande",
        "postal_code": 41000,
        "commune": "Blois",
        "numero": "1",
        "voie": "Rue de Chateaubriand",
        "lieu_dit": "",
        "activite": "Boucherie / commerce de viande",
        "contact_url": "",
        "site_internet": "http://www.boucherie-myviande.com/",
        "latitude": 47.5809,
        "longitude": 1.3073
    },
    {
        "name": "Boucherie Sologne Frais",
        "postal_code": 41000,
        "commune": "Blois",
        "numero": "64",
        "voie": "Rue Andre Boulle",
        "lieu_dit": "",
        "activite": "Boucherie / commerce de viande",
        "contact_url": "",
        "site_internet": "http://www.sologne-frais.fr/",
        "latitude": 47.6108,
        "longitude": 1.3146
    },
    {
        "name": "Boucherie Traiteur NIVARD La Viande de Manu",
        "postal_code": 41120,
        "commune": "Sambin",
        "numero": "5",
        "voie": "Rue de la Fontaine Saint-urbain",
        "lieu_dit": "",
        "activite": "Boucherie / commerce de viande",
        "contact_url": "",
        "site_internet": "",
        "latitude": 47.4378,
        "longitude": 1.2941
    },
    {
        "name": "Bougie spirituelle",
        "postal_code": 41000,
        "commune": "Blois",
        "numero": "120",
        "voie": "Rue du Bourg Neuf",
        "lieu_dit": "",
        "activite": "Librairie",
        "contact_url": "",
        "site_internet": "",
        "latitude": 47.5933,
        "longitude": 1.3296
    },
    {
        "name": "Boulangerie Buron Joël Joël",
        "postal_code": 41350,
        "commune": "Vineuil",
        "numero": "4",
        "voie": "Place Jules Verne",
        "lieu_dit": "",
        "activite": "Boulangerie Pâtisserie",
        "contact_url": "",
        "site_internet": "",
        "latitude": 47.5839,
        "longitude": 1.3737
    },
    {
        "name": "Boulangerie CHEREAU",
        "postal_code": 41000,
        "commune": "Blois",
        "numero": "147bis",
        "voie": "Avenue du Maréchal Maunoury",
        "lieu_dit": "",
        "activite": "Boulangerie Pâtisserie",
        "contact_url": "",
        "site_internet": "",
        "latitude": 47.6004,
        "longitude": 1.3466
    },
    {
        "name": "Boulangerie Chouquette",
        "postal_code": 41000,
        "commune": "Blois",
        "numero": "2",
        "voie": "Rue Jean de la Fontaine",
        "lieu_dit": "",
        "activite": "Boulangerie Pâtisserie",
        "contact_url": "",
        "site_internet": "https://boulangerie-de-larrou-blois.eatbu.com/",
        "latitude": 47.5822,
        "longitude": 1.3048
    },
    {
        "name": "Boulangerie de Sambin",
        "postal_code": 41120,
        "commune": "Sambin",
        "numero": "3",
        "voie": "Rue de la Fontaine Saint-urbain",
        "lieu_dit": "",
        "activite": "Boulangerie Pâtisserie",
        "contact_url": "",
        "site_internet": "",
        "latitude": 47.4377,
        "longitude": 1.2938
    },
    {
        "name": "Boulangerie Durasnel",
        "postal_code": 41000,
        "commune": "Blois",
        "numero": "53",
        "voie": "Rue Porte-chartraine",
        "lieu_dit": "",
        "activite": "Boulangerie Pâtisserie",
        "contact_url": "",
        "site_internet": "https://www.facebook.com/Boulangerie-Durasnel-182393625492355",
        "latitude": 47.5887,
        "longitude": 1.3313
    },
    {
        "name": "Boulangerie Feuillette",
        "postal_code": 41000,
        "commune": "Blois",
        "numero": "",
        "voie": "Avenue de Vendome",
        "lieu_dit": "",
        "activite": "Boulangerie Pâtisserie",
        "contact_url": "",
        "site_internet": "https://www.feuillette.fr/",
        "latitude": 47.6018,
        "longitude": 1.3169
    },
    {
        "name": "Boulangerie Feuillette",
        "postal_code": 41350,
        "commune": "Saint-Gervais-la-Forêt",
        "numero": "69",
        "voie": "Route Nationale",
        "lieu_dit": "",
        "activite": "Boulangerie Pâtisserie",
        "contact_url": "",
        "site_internet": "https://www.feuillette.fr/",
        "latitude": 47.5674,
        "longitude": 1.3636
    },
    {
        "name": "Boulangerie Gaveau Bruno",
        "postal_code": 41190,
        "commune": "Saint-Lubin-en-Vergonnois",
        "numero": "1",
        "voie": "Rue des Grandes Fontaines",
        "lieu_dit": "",
        "activite": "Boulangerie Pâtisserie",
        "contact_url": "",
        "site_internet": "",
        "latitude": 47.6127,
        "longitude": 1.2387
    },
    {
        "name": "Boulangerie Guignon",
        "postal_code": 41190,
        "commune": "Herbault",
        "numero": "36",
        "voie": "Place de l’Hôtel de Ville",
        "lieu_dit": "",
        "activite": "Boulangerie Pâtisserie",
        "contact_url": "",
        "site_internet": "https://www.franceboulangerie.fr/boulangeries/boulangerie-guignon-herbault/",
        "latitude": 47.6045,
        "longitude": 1.1409
    },
    {
        "name": "Boulangerie Guyon",
        "postal_code": 41000,
        "commune": "Blois",
        "numero": "26",
        "voie": "Rue des 3 Marchands",
        "lieu_dit": "",
        "activite": "Boulangerie Pâtisserie",
        "contact_url": "",
        "site_internet": "",
        "latitude": 47.584,
        "longitude": 1.3304
    },
    {
        "name": "Boulangerie Maison Chatelin",
        "postal_code": 41000,
        "commune": "Blois",
        "numero": "8",
        "voie": "Rue Jacques Gabriel",
        "lieu_dit": "",
        "activite": "Boulangerie Pâtisserie",
        "contact_url": "",
        "site_internet": "",
        "latitude": 47.5823,
        "longitude": 1.3164
    },
    {
        "name": "Boulangerie MARTOM",
        "postal_code": 41120,
        "commune": "Les Montils",
        "numero": "12",
        "voie": "Route de Blois",
        "lieu_dit": "",
        "activite": "Boulangerie Pâtisserie",
        "contact_url": "",
        "site_internet": "",
        "latitude": 47.5,
        "longitude": 1.2988
    },
    {
        "name": "Boulangerie Médicis",
        "postal_code": 41000,
        "commune": "Blois",
        "numero": "1",
        "voie": "Rue Pierre de Ronsard",
        "lieu_dit": "",
        "activite": "Boulangerie Pâtisserie",
        "contact_url": "",
        "site_internet": "",
        "latitude": 47.5851,
        "longitude": 1.3185
    },
    {
        "name": "Boulangerie Patisserie Anaïs et Renan Picart",
        "postal_code": 41000,
        "commune": "Blois",
        "numero": "7",
        "voie": "Rue du Commerce",
        "lieu_dit": "",
        "activite": "Boulangerie Pâtisserie",
        "contact_url": "",
        "site_internet": "https://m.facebook.com/Anarenpic/",
        "latitude": 47.586,
        "longitude": 1.335
    },
    {
        "name": "Boulangerie Pâtisserie Cédric Noël",
        "postal_code": 41150,
        "commune": "Veuzain-sur-Loire",
        "numero": "28",
        "voie": "Grande Rue",
        "lieu_dit": "",
        "activite": "Boulangerie Pâtisserie",
        "contact_url": "",
        "site_internet": "https://www.facebook.com/pages/category/Chocolate-Shop/Boulangerie-P%C3%A2tisserie-C%C3%A9dric-No%C3%ABl-110331583787361/",
        "latitude": 47.5001,
        "longitude": 1.1755
    },
    {
        "name": "Boulangerie-Pâtisserie du Dolmen SARL",
        "postal_code": 41330,
        "commune": "La Chapelle-Vendômoise",
        "numero": "4",
        "voie": "Rue de Blois",
        "lieu_dit": "",
        "activite": "Boulangerie Pâtisserie",
        "contact_url": "",
        "site_internet": "https://dolmengourmand.fr/boulangerie/",
        "latitude": 47.6707,
        "longitude": 1.2383
    },
    {
        "name": "Boulangerie Pâtisserie Guéry",
        "postal_code": 41150,
        "commune": "Valloire-sur-Cisse",
        "numero": "1",
        "voie": "Place de la Mairie",
        "lieu_dit": "",
        "activite": "Boulangerie Pâtisserie",
        "contact_url": "",
        "site_internet": "",
        "latitude": 47.5221,
        "longitude": 1.2455
    },
    {
        "name": "Boulangerie Patisserie Marlau",
        "postal_code": 41000,
        "commune": "Blois",
        "numero": "10",
        "voie": "Avenue du Docteur Jean Laigret",
        "lieu_dit": "",
        "activite": "Boulangerie Pâtisserie",
        "contact_url": "",
        "site_internet": "",
        "latitude": 47.5854,
        "longitude": 1.3245
    },
    {
        "name": "Boulangerie Pâtisserie Soufflet",
        "postal_code": 41150,
        "commune": "Valloire-sur-Cisse",
        "numero": "1",
        "voie": "Grande Rue",
        "lieu_dit": "",
        "activite": "Boulangerie Pâtisserie",
        "contact_url": "",
        "site_internet": "",
        "latitude": 47.5224,
        "longitude": 1.2451
    },
    {
        "name": "Boulangerie Pohu",
        "postal_code": 41700,
        "commune": "Cour-Cheverny",
        "numero": "70",
        "voie": "Rue Nationale",
        "lieu_dit": "",
        "activite": "Boulangerie Pâtisserie",
        "contact_url": "",
        "site_internet": "",
        "latitude": 47.5087,
        "longitude": 1.4547
    },
    {
        "name": "Boulangerie Ronde Des Pains Pâtisserie",
        "postal_code": 41000,
        "commune": "Villebarou",
        "numero": "2",
        "voie": "Rue des Lions",
        "lieu_dit": "",
        "activite": "Boulangerie Pâtisserie",
        "contact_url": "",
        "site_internet": "",
        "latitude": 47.623,
        "longitude": 1.3227
    },
    {
        "name": "Boulanger Patissier",
        "postal_code": 41350,
        "commune": "Vineuil",
        "numero": "",
        "voie": "Avenue des Noëls",
        "lieu_dit": "",
        "activite": "Boulangerie Pâtisserie",
        "contact_url": "",
        "site_internet": "",
        "latitude": 47.6004,
        "longitude": 1.3957
    },
    {
        "name": "BOUTARD - AFDB",
        "postal_code": 41000,
        "commune": "Blois",
        "numero": "9",
        "voie": "Avenue Gutenberg",
        "lieu_dit": "",
        "activite": "Droguerie",
        "contact_url": "",
        "site_internet": "https://www.afdb.fr/boutard-blois_BLO_magasin.html",
        "latitude": 47.6042,
        "longitude": 1.3111
    },
    {
        "name": "BOUTIQUE DES 3 AVE",
        "postal_code": 41000,
        "commune": "Blois",
        "numero": "10",
        "voie": "Boulevard Carnot",
        "lieu_dit": "",
        "activite": "Librairie",
        "contact_url": "",
        "site_internet": "",
        "latitude": 47.5937,
        "longitude": 1.3432
    },
    {
        "name": "Boutique Tintin",
        "postal_code": 41700,
        "commune": "Cheverny",
        "numero": "",
        "voie": "Château de la Grande Bourdonnière",
        "lieu_dit": "",
        "activite": "Librairie",
        "contact_url": "",
        "site_internet": "",
        "latitude": 47.4972,
        "longitude": 1.4286
    },
    {
        "name": "BOUVIER GOURY Chambre funéraire",
        "postal_code": 41000,
        "commune": "Blois",
        "numero": "24",
        "voie": "Rue de Bejun",
        "lieu_dit": "",
        "activite": "Pompes funèbres",
        "contact_url": "",
        "site_internet": "http://www.bouviergoury.com/",
        "latitude": 47.5638,
        "longitude": 1.3203
    },
    {
        "name": "Bpvf",
        "postal_code": 41000,
        "commune": "Blois",
        "numero": "7",
        "voie": "Rue Denis Papin",
        "lieu_dit": "",
        "activite": "Banques, caisses d'épargne",
        "contact_url": "",
        "site_internet": "",
        "latitude": 47.5866,
        "longitude": 1.3354
    },
    {
        "name": "Brasserie du château",
        "postal_code": 41000,
        "commune": "Blois",
        "numero": "17",
        "voie": "Rue Porte- Cote",
        "lieu_dit": "",
        "activite": "Restaurant",
        "contact_url": "",
        "site_internet": "",
        "latitude": 47.5868,
        "longitude": 1.3308
    },
    {
        "name": "Brasserie Guillaume",
        "postal_code": 41700,
        "commune": "Cour-Cheverny",
        "numero": "3",
        "voie": "Rue du Stade",
        "lieu_dit": "",
        "activite": "Caviste / commerce de détail de boissons",
        "contact_url": "",
        "site_internet": "",
        "latitude": 47.5172,
        "longitude": 1.4475
    },
    {
        "name": "Brico Dépôt",
        "postal_code": 41000,
        "commune": "Villebarou",
        "numero": "",
        "voie": "Route de Vendôme",
        "lieu_dit": "",
        "activite": "Bricolage, matériaux, travaux",
        "contact_url": "",
        "site_internet": "https://www.bricodepot.fr/villebarou/?utm_content=Villebarou",
        "latitude": 47.6169,
        "longitude": 1.3025
    },
    {
        "name": "Bricorama",
        "postal_code": 41350,
        "commune": "Vineuil",
        "numero": "50",
        "voie": "Rue Lavoisier",
        "lieu_dit": "",
        "activite": "Bricolage, matériaux, travaux",
        "contact_url": "",
        "site_internet": "",
        "latitude": 47.5745,
        "longitude": 1.3708
    },
    {
        "name": "Bricorama Blois",
        "postal_code": 41350,
        "commune": "Vineuil",
        "numero": "50",
        "voie": "Rue Lavoisier",
        "lieu_dit": "",
        "activite": "Droguerie",
        "contact_url": "",
        "site_internet": "https://www.bricorama.fr/magasin/Vineuil/09060?store=09060",
        "latitude": 47.5742,
        "longitude": 1.3711
    },
    {
        "name": "Brit Hotel  Préma",
        "postal_code": 41000,
        "commune": "Blois",
        "numero": "3",
        "voie": "Rue des Onze Arpents",
        "lieu_dit": "",
        "activite": "Hôtel",
        "contact_url": "",
        "site_internet": "",
        "latitude": 47.6137,
        "longitude": 1.3351
    },
    {
        "name": "Bro's Restaurant",
        "postal_code": 41000,
        "commune": "Blois",
        "numero": "36",
        "voie": "Rue Foulerie",
        "lieu_dit": "",
        "activite": "Restaurant",
        "contact_url": "",
        "site_internet": "",
        "latitude": 47.5874,
        "longitude": 1.337
    },
    {
        "name": "Brut maison de cuisine",
        "postal_code": 41000,
        "commune": "Blois",
        "numero": "14",
        "voie": "Quai Villebois Mareuil",
        "lieu_dit": "",
        "activite": "Restaurant",
        "contact_url": "",
        "site_internet": "",
        "latitude": 47.5835,
        "longitude": 1.3385
    },
    {
        "name": "Bucher Alain-Philippe",
        "postal_code": 41350,
        "commune": "Saint-Gervais-la-Forêt",
        "numero": "74",
        "voie": "Route Nationale",
        "lieu_dit": "",
        "activite": "Chirurgien dentiste",
        "contact_url": "",
        "site_internet": "",
        "latitude": 47.5669,
        "longitude": 1.3649
    },
    {
        "name": "Buquet Agnes",
        "postal_code": 41120,
        "commune": "Chailles",
        "numero": "",
        "voie": "Rue des Cormiers",
        "lieu_dit": "",
        "activite": "Chirurgien dentiste",
        "contact_url": "",
        "site_internet": "",
        "latitude": 47.5298,
        "longitude": 1.307
    },
    {
        "name": "BUREAU DES Promenades Photographiques",
        "postal_code": 41000,
        "commune": "Blois",
        "numero": "1",
        "voie": "Place de la Grève",
        "lieu_dit": "",
        "activite": "Photographie",
        "contact_url": "",
        "site_internet": "https://promenadesphotographiques.com/",
        "latitude": 47.5828,
        "longitude": 1.3311
    },
    {
        "name": "Bureau d'information touristique de Cheverny",
        "postal_code": 41700,
        "commune": "Cheverny",
        "numero": "12",
        "voie": "Rue du Chêne des Dames",
        "lieu_dit": "",
        "activite": "Office du tourisme",
        "contact_url": "",
        "site_internet": "http://www.bloischambord.com/",
        "latitude": 47.499,
        "longitude": 1.4602
    },
    {
        "name": "Bureau information jeunesse - Blois",
        "postal_code": 41000,
        "commune": "Blois",
        "numero": "15",
        "voie": "avenue de Vendôme",
        "lieu_dit": "",
        "activite": "Point information jeunesse",
        "contact_url": "",
        "site_internet": "https://www.infojeune41.org",
        "latitude": 47.5958,
        "longitude": 1.3277
    },
    {
        "name": "Burger Time",
        "postal_code": 41000,
        "commune": "Blois",
        "numero": "4",
        "voie": "Rue Henri Drussy",
        "lieu_dit": "",
        "activite": "Restauration rapide",
        "contact_url": "",
        "site_internet": "https://www.burgertime41.fr/",
        "latitude": 47.5865,
        "longitude": 1.336
    },
    {
        "name": "BUT",
        "postal_code": 41350,
        "commune": "Vineuil",
        "numero": "",
        "voie": "Rue Bernard Palissy",
        "lieu_dit": "",
        "activite": "Meubles ameublement",
        "contact_url": "",
        "site_internet": "",
        "latitude": 47.5715,
        "longitude": 1.3686
    },
    {
        "name": "Cabinet Dentaire Bojenco et Simon",
        "postal_code": 41000,
        "commune": "Blois",
        "numero": "",
        "voie": "Rue Roland Moreno",
        "lieu_dit": "",
        "activite": "Chirurgien dentiste",
        "contact_url": "",
        "site_internet": "https://www.doctolib.fr/dentiste/blois/andreea-simon",
        "latitude": 47.6015,
        "longitude": 1.3304
    },
    {
        "name": "Cabinet dentaire Ciobanu",
        "postal_code": 41000,
        "commune": "Blois",
        "numero": "65",
        "voie": "Avenue de l'Europe",
        "lieu_dit": "",
        "activite": "Chirurgien dentiste",
        "contact_url": "",
        "site_internet": "https://www.monrdvdentaire.fr/v1/view/organization/100482/index.html#/perspectives/1",
        "latitude": 47.5898,
        "longitude": 1.3003
    },
    {
        "name": "Cabinet Dentaire du Docteur Bruno LAHALLE Chirurgien-Dentiste à Blois",
        "postal_code": 41000,
        "commune": "Blois",
        "numero": "17",
        "voie": "Mail Clouseau",
        "lieu_dit": "",
        "activite": "Chirurgien dentiste",
        "contact_url": "",
        "site_internet": "http://docteur-bruno-lahalle.chirurgiens-dentistes.fr/fr/contactez-nous",
        "latitude": 47.5899,
        "longitude": 1.3362
    },
    {
        "name": "café fournille",
        "postal_code": 41000,
        "commune": "Blois",
        "numero": "",
        "voie": "",
        "lieu_dit": "Le Vau Jagot",
        "activite": "Boulangerie Pâtisserie",
        "contact_url": "",
        "site_internet": "",
        "latitude": 47.5494,
        "longitude": 1.2814
    },
    {
        "name": "Caisse Credit Mutuel de Blois",
        "postal_code": 41000,
        "commune": "Blois",
        "numero": "2",
        "voie": "Rue du Commerce",
        "lieu_dit": "",
        "activite": "Banques, caisses d'épargne",
        "contact_url": "",
        "site_internet": "",
        "latitude": 47.5855,
        "longitude": 1.335
    },
    {
        "name": "CAISSE D'EPARGNE LOIRE-CENTRE - BLOIS HALLE AUX GRAINS",
        "postal_code": 41000,
        "commune": "Blois",
        "numero": "28",
        "voie": "Avenue du Maréchal Maunoury",
        "lieu_dit": "",
        "activite": "Banques, caisses d'épargne",
        "contact_url": "",
        "site_internet": "",
        "latitude": 47.5916,
        "longitude": 1.3364
    },
    {
        "name": "CAISSE D'EPARGNE LOIRE-CENTRE - BLOIS NORD",
        "postal_code": 41000,
        "commune": "Blois",
        "numero": "2",
        "voie": "Boulevard de l'Industrie",
        "lieu_dit": "",
        "activite": "Banques, caisses d'épargne",
        "contact_url": "",
        "site_internet": "",
        "latitude": 47.6006,
        "longitude": 1.3201
    },
    {
        "name": "CAISSE D'EPARGNE LOIRE-CENTRE - BLOIS WILSON",
        "postal_code": 41000,
        "commune": "Blois",
        "numero": "49",
        "voie": "Avenue du President Wilson",
        "lieu_dit": "",
        "activite": "Banques, caisses d'épargne",
        "contact_url": "",
        "site_internet": "",
        "latitude": 47.5821,
        "longitude": 1.3419
    },
    {
        "name": "CAISSE D'EPARGNE LOIRE-CENTRE - ONZAIN",
        "postal_code": 41150,
        "commune": "Veuzain-sur-Loire",
        "numero": "8",
        "voie": "Rue des Rapins",
        "lieu_dit": "",
        "activite": "Banques, caisses d'épargne",
        "contact_url": "",
        "site_internet": "",
        "latitude": 47.5,
        "longitude": 1.1732
    },
    {
        "name": "CAISSE D'EPARGNE LOIRE-CENTRE - VINEUIL",
        "postal_code": 41350,
        "commune": "Vineuil",
        "numero": "1",
        "voie": "Rue Alfred de Vigny",
        "lieu_dit": "",
        "activite": "Banques, caisses d'épargne",
        "contact_url": "",
        "site_internet": "",
        "latitude": 47.5836,
        "longitude": 1.3745
    },
    {
        "name": "Camping 4 etoiles en val de Loire",
        "postal_code": 41700,
        "commune": "Cheverny",
        "numero": "",
        "voie": "Les Saules",
        "lieu_dit": "",
        "activite": "Hôtel",
        "contact_url": "",
        "site_internet": "",
        "latitude": 47.4779,
        "longitude": 1.4505
    },
    {
        "name": "Campus des Métiers et de l'Artisanat - Loir-et-Cher",
        "postal_code": 41000,
        "commune": "Blois",
        "numero": "12",
        "voie": "Rue Francois Billoux",
        "lieu_dit": "",
        "activite": "Collège",
        "contact_url": "",
        "site_internet": "http://www.campusdesmetiers41.fr/",
        "latitude": 47.6091,
        "longitude": 1.3237
    },
    {
        "name": "Campus La Providence",
        "postal_code": 41000,
        "commune": "Blois",
        "numero": "11",
        "voie": "Rue des Saintes Maries",
        "lieu_dit": "",
        "activite": "Collège",
        "contact_url": "",
        "site_internet": "http://www.laprovidence-blois.fr/",
        "latitude": 47.5925,
        "longitude": 1.3314
    },
    {
        "name": "Campus La Providence",
        "postal_code": 41000,
        "commune": "Blois",
        "numero": "23",
        "voie": "Rue des Saintes Maries",
        "lieu_dit": "",
        "activite": "Collège",
        "contact_url": "",
        "site_internet": "http://www.laprovidence-blois.fr/",
        "latitude": 47.593,
        "longitude": 1.3306
    },
    {
        "name": "Cap Cinema Agen",
        "postal_code": 41000,
        "commune": "Blois",
        "numero": "",
        "voie": "Rue des Onze Arpents",
        "lieu_dit": "",
        "activite": "Cinéma",
        "contact_url": "",
        "site_internet": "https://blois.cap-cine.fr/",
        "latitude": 47.6139,
        "longitude": 1.3366
    },
    {
        "name": "CAP' Coiff - Sylvie Plateaux",
        "postal_code": 41190,
        "commune": "Valencisse",
        "numero": "2",
        "voie": "Avenue de Blois",
        "lieu_dit": "",
        "activite": "Coiffure",
        "contact_url": "",
        "site_internet": "",
        "latitude": 47.5782,
        "longitude": 1.2159
    },
    {
        "name": "Capelli coiffure",
        "postal_code": 41150,
        "commune": "Valloire-sur-Cisse",
        "numero": "8bis",
        "voie": "Place de la Mairie",
        "lieu_dit": "",
        "activite": "Coiffure",
        "contact_url": "",
        "site_internet": "https://www.planity.com/capelli-coiffure-41150-valloire-sur-cisse",
        "latitude": 47.5219,
        "longitude": 1.2455
    },
    {
        "name": "CARADOR",
        "postal_code": 41000,
        "commune": "Villebarou",
        "numero": "",
        "voie": "Route de Vendôme",
        "lieu_dit": "",
        "activite": "Bijouterie joaillerie",
        "contact_url": "",
        "site_internet": "https://bijouterie-carador.com/",
        "latitude": 47.6169,
        "longitude": 1.3025
    },
    {
        "name": "Carmarket.fr",
        "postal_code": 41120,
        "commune": "Candé-sur-Beuvron",
        "numero": "7",
        "voie": "Rue du Clos des Neiges",
        "lieu_dit": "",
        "activite": "Carrosserie",
        "contact_url": "",
        "site_internet": "",
        "latitude": 47.5133,
        "longitude": 1.3
    },
    {
        "name": "Caro Coiffure Homme",
        "postal_code": 41120,
        "commune": "Cormeray",
        "numero": "10",
        "voie": "Rue des Poutils",
        "lieu_dit": "",
        "activite": "Coiffure",
        "contact_url": "",
        "site_internet": "",
        "latitude": 47.493,
        "longitude": 1.4007
    },
    {
        "name": "CARPY Coiffeur Coloriste",
        "postal_code": 41000,
        "commune": "Blois",
        "numero": "50",
        "voie": "Rue Denis Papin",
        "lieu_dit": "",
        "activite": "Coiffure",
        "contact_url": "",
        "site_internet": "http://www.carpy.com/",
        "latitude": 47.5874,
        "longitude": 1.3332
    },
    {
        "name": "Carrefour Traiteur",
        "postal_code": 41000,
        "commune": "Blois",
        "numero": "1",
        "voie": "Rue de la Quiniere",
        "lieu_dit": "",
        "activite": "Boucherie / commerce de viande",
        "contact_url": "",
        "site_internet": "https://traiteur.carrefour.fr/",
        "latitude": 47.577,
        "longitude": 1.3027
    },
    {
        "name": "CARROSSERIE 2C DESIGN",
        "postal_code": 41120,
        "commune": "Candé-sur-Beuvron",
        "numero": "",
        "voie": "Rue des 4 Arpents",
        "lieu_dit": "",
        "activite": "Carrosserie",
        "contact_url": "",
        "site_internet": "",
        "latitude": 47.514,
        "longitude": 1.2971
    },
    {
        "name": "CARROSSERIE ADR PEINTURE",
        "postal_code": 41120,
        "commune": "Les Montils",
        "numero": "2",
        "voie": "Rue de la Croix de Pierre",
        "lieu_dit": "",
        "activite": "Carrosserie",
        "contact_url": "",
        "site_internet": "http://adr-peinture.fr/",
        "latitude": 47.5111,
        "longitude": 1.3017
    },
    {
        "name": "Carrosserie Automobile MARTINS Dominique",
        "postal_code": 41700,
        "commune": "Cour-Cheverny",
        "numero": "4",
        "voie": "Rue du Clos de l’Ardoise",
        "lieu_dit": "",
        "activite": "Carrosserie",
        "contact_url": "",
        "site_internet": "",
        "latitude": 47.5195,
        "longitude": 1.45
    },
    {
        "name": "CARROSSERIE BLESOISE",
        "postal_code": 41000,
        "commune": "Blois",
        "numero": "84",
        "voie": "Rue Bertrand Duguesclin",
        "lieu_dit": "",
        "activite": "Carrosserie",
        "contact_url": "",
        "site_internet": "http://carrosserieblesoise.fr/",
        "latitude": 47.599,
        "longitude": 1.2998
    },
    {
        "name": "CARROSSERIE CISSE-LOIRE",
        "postal_code": 41150,
        "commune": "Valloire-sur-Cisse",
        "numero": "180",
        "voie": "Route d’Onzain",
        "lieu_dit": "",
        "activite": "Carrosserie",
        "contact_url": "",
        "site_internet": "",
        "latitude": 47.5072,
        "longitude": 1.208
    },
    {
        "name": "Carrosserie Fénelon",
        "postal_code": 41000,
        "commune": "Blois",
        "numero": "15",
        "voie": "Rue Fenelon",
        "lieu_dit": "",
        "activite": "Carrosserie",
        "contact_url": "",
        "site_internet": "",
        "latitude": 47.5863,
        "longitude": 1.3172
    },
    {
        "name": "Carrosserie Giraudeau",
        "postal_code": 41000,
        "commune": "Blois",
        "numero": "52",
        "voie": "Avenue de Vendome",
        "lieu_dit": "",
        "activite": "Carrosserie",
        "contact_url": "",
        "site_internet": "http://www.acoat-selected.fr/carrosserie/giraudeau",
        "latitude": 47.5984,
        "longitude": 1.3227
    },
    {
        "name": "CARROSSERIE PICHON",
        "postal_code": 41350,
        "commune": "Vineuil",
        "numero": "123",
        "voie": "Rue Marcellin Berthelot",
        "lieu_dit": "",
        "activite": "Carrosserie",
        "contact_url": "",
        "site_internet": "https://carrosserie-pichon.com/",
        "latitude": 47.5683,
        "longitude": 1.3723
    },
    {
        "name": "Carrosserie Randuineau SARL",
        "postal_code": 41150,
        "commune": "Veuzain-sur-Loire",
        "numero": "1",
        "voie": "Avenue du Géneral de Gaulle",
        "lieu_dit": "",
        "activite": "Carrosserie",
        "contact_url": "",
        "site_internet": "",
        "latitude": 47.491,
        "longitude": 1.1855
    },
    {
        "name": "Carrosserie Vinolienne - Motrio",
        "postal_code": 41350,
        "commune": "Vineuil",
        "numero": "8",
        "voie": "Rue des Eglantiers",
        "lieu_dit": "",
        "activite": "Carrosserie",
        "contact_url": "",
        "site_internet": "https://motrio.fr/shop/CARROSSERIE%20VINOLIENNE/ESTFRA23.03D77B",
        "latitude": 47.5736,
        "longitude": 1.3945
    },